{
  "type": "FeatureCollection",
  "features": [
    {
      "type": "Feature",
      "geometry": {
        "type": "Point",
        "coordinates": [
          -73.987801,
          40.766094
        ]
      },
      "properties": {
        "description": "Thorgy Thor, Peppermint",
        "title": "Scott Creek",
        "marker-size": "small"
      }
    },
    {
      "type": "Feature",
      "geometry": {
        "type": "Point",
        "coordinates": [
          -73.986873,
            40.764648 
        ]
      },
      "properties": {
        "description": "Bob the Drag Queen",
        "title": "Industry",
        "marker-size": "small"
      }
    },
    {
      "type": "Feature",
      "geometry": {
        "type": "Point",
        "coordinates": [
          -122.342876,
          43.063217
        ]
      },
      "properties": {
        "description": "Vault toilet",
        "title": "Claude Lewis Sno-Park-USFS",
        "marker-size": "small"
      }
    },
    {
      "type": "Feature",
      "geometry": {
        "type": "Point",
        "coordinates": [
          -122.037881,
          42.879145
        ]
      },
      "properties": {
        "description": "Flush toilet",
        "title": "Lost Creek",
        "marker-size": "small"
      }
    },
    {
      "type": "Feature",
      "geometry": {
        "type": "Point",
        "coordinates": [
          -122.330322,
          43.056641
        ]
      },
      "properties": {
        "description": "Vault toilet",
        "title": "Hamaker",
        "marker-size": "small"
      }
    },
    {
      "type": "Feature",
      "geometry": {
        "type": "Point",
        "coordinates": [
          -122.337174,
          42.877807
        ]
      },
      "properties": {
        "description": "Vault toilet",
        "title": "Huckleberry Mountain",
        "marker-size": "small"
      }
    },
    {
      "type": "Feature",
      "geometry": {
        "type": "Point",
        "coordinates": [
          -122.463867,
          42.889648
        ]
      },
      "properties": {
        "description": "Vault toilet",
        "title": "Natural Bridge -USFS",
        "marker-size": "small"
      }
    },
    {
      "type": "Feature",
      "geometry": {
        "type": "Point",
        "coordinates": [
          -122.433105,
          42.919678
        ]
      },
      "properties": {
        "description": "",
        "title": "Farewell Bend",
        "marker-size": "small"
      }
    },
    {
      "type": "Feature",
      "geometry": {
        "type": "Point",
        "coordinates": [
          -121.924772,
          42.884588
        ]
      },
      "properties": {
        "description": "Vault toilet",
        "title": "Scott Creek",
        "marker-size": "small"
      }
    },
    {
      "type": "Feature",
      "geometry": {
        "type": "Point",
        "coordinates": [
          -122.324644,
          42.913045
        ]
      },
      "properties": {
        "description": "Vault toilet",
        "title": "Thousand Springs Sno-Park-USFS",
        "marker-size": "small"
      }
    },
    {
      "type": "Feature",
      "geometry": {
        "type": "Point",
        "coordinates": [
          -122.45,
          42.9102777778
        ]
      },
      "properties": {
        "description": "Vault toilet",
        "title": "Union Creek",
        "marker-size": "small"
      }
    },
    {
      "type": "Feature",
      "geometry": {
        "type": "Point",
        "coordinates": [
          -122.4353305556,
          42.9162388889
        ]
      },
      "properties": {
        "description": "",
        "title": "Farewell Bend Campground",
        "marker-size": "small"
      }
    },
    {
      "type": "Feature",
      "geometry": {
        "type": "Point",
        "coordinates": [
          -73.934779,
          40.69771
        ]
      },
      "properties": {
        "description": "Venue test",
        "title": "venue test",
        "marker-size": "small"
      }
    }
  ]
}