{"type":"FeatureCollection","features":[{"type":"Feature","geometry":{"type":"Point","coordinates":[-73.993318,40.764078]},"properties":{"description":"Lilith Lefae","title":"Hardware","marker-size":"small","showtype":"Show","date":"2/5/18","cover":"Free","address":"697 10th Ave, New York, NY 10036","city":"Manhattan","show":"Fridays on Monday","time":"6:00pm"}},{"type":"Feature","geometry":{"type":"Point","coordinates":[-73.987017,40.764904]},"properties":{"description":"Sister Mary Helen","title":"Therapy","marker-size":"small","showtype":"Show","date":"2/5/18","cover":"Free","address":"348 W 52nd St, New York, NY 10019","city":"Manhattan","show":"Broadway on 7th","time":"8:00pm"}},{"type":"Feature","geometry":{"type":"Point","coordinates":[-73.986826,40.765341]},"properties":{"description":"Godiva Romance","title":"Industry","marker-size":"small","showtype":"Show","date":"2/6/18","cover":"$5 ","address":"355 W 52nd St, New York, NY 10019","city":"Manhattan","show":"Mouthful of Godiva","time":"6:00pm"}},{"type":"Feature","geometry":{"type":"Point","coordinates":[-73.966956,40.760072]},"properties":{"description":"Brenda Dharling","title":"Lips","marker-size":"small","showtype":"Show","date":"2/6/18","cover":"Free","address":"227 E 56th St, New York, NY 10022","city":"Manhattan","show":"Turn me out Tuesdays","time":"8:00pm"}},{"type":"Feature","geometry":{"type":"Point","coordinates":[-74.002088,40.734297]},"properties":{"description":"Chelsea Piers","title":"Monster Bar","marker-size":"small","showtype":"Show","date":"2/6/18","cover":"$5 ","address":"80 Grove St, New York, NY 10014","city":"Manhattan","show":"Booked, Blond, and Beautiful","time":"10:00pm"}},{"type":"Feature","geometry":{"type":"Point","coordinates":[-74.002163,40.734044]},"properties":{"description":"Catrina Lovelace","title":"The Stonewall Inn","marker-size":"small","showtype":"Show","date":"2/7/18","cover":"$5 ","address":"53 Christopher St, New York, NY 10014","city":"Manhattan","show":"It Still Aint Friday","time":"6:00pm"}},{"type":"Feature","geometry":{"type":"Point","coordinates":[-74.007877,40.741057]},"properties":{"description":"Ari Kiki","title":"The Standard (Le Bain)","marker-size":"small","showtype":"Show","date":"2/7/18","cover":"Free","address":"848 Washington St, New York, NY 10014","city":"Manhattan","show":"I wish a bitch would","time":"8:00pm"}},{"type":"Feature","geometry":{"type":"Point","coordinates":[-74.000136,40.734172]},"properties":{"description":"Vicky Boofont","title":"Pieces","marker-size":"small","showtype":"Show","date":"2/8/18","cover":"$5 ","address":"8 Christopher St, New York, NY 10014","city":"Manhattan","show":"Thirsty Thursday Happy Hour","time":"6:00pm"}},{"type":"Feature","geometry":{"type":"Point","coordinates":[-74.009738,40.732836]},"properties":{"description":"Deliah J Brooks","title":"Rockbar","marker-size":"small","showtype":"Show","date":"2/8/18","cover":"$5 ","address":"185 Christopher St, New York, NY 10014","city":"Manhattan","show":"2 Tons of Fun","time":"8:00pm"}},{"type":"Feature","geometry":{"type":"Point","coordinates":[-73.949563,40.713866]},"properties":{"description":"Thorgy Thor","title":"Metropolitan","marker-size":"small","showtype":"Viewing Party","date":"2/8/18","cover":"$5 ","address":"559 Lorimer St, Brooklyn, NY 11211","city":"Brooklyn","show":"RPDR Viewing Party","time":"8:00pm"}},{"type":"Feature","geometry":{"type":"Point","coordinates":[-73.902418,40.694628]},"properties":{"description":"Zenobia","title":"The Deep End","marker-size":"small","showtype":"Viewing Party","date":"2/8/18","cover":"$5 ","address":"1080 Wyckoff Ave, Ridgewood, NY 11385","city":"Brooklyn","show":"RPDR Viewing Party","time":"8:00pm"}}]}