{
  "type": "FeatureCollection",
  "features": [
   {
      "type": "Feature",
      "geometry": {
        "type": "Point",
        "coordinates": [
          -73.993318,
          40.764078
        ]
      },
      "properties": {
        "description": "Lilith Lefae",
        "title": "Hardware",
        "marker-size": "small"
      }
    },
    {
      "type": "Feature",
      "geometry": {
        "type": "Point",
        "coordinates": [
          -73.987017,
          40.764904
        ]
      },
      "properties": {
        "description": "Sister Mary Helen",
        "title": "Therapy",
        "marker-size": "small"
      }
    },
    {
      "type": "Feature",
      "geometry": {
        "type": "Point",
        "coordinates": [
          -73.986826,
          40.765341
        ]
      },
      "properties": {
        "description": "Godiva Romance",
        "title": "Industry",
        "marker-size": "small"
      }
    },
    {
      "type": "Feature",
      "geometry": {
        "type": "Point",
        "coordinates": [
          -73.966956,
          40.760072
        ]
      },
      "properties": {
        "description": "Brenda Dharling",
        "title": "Lips",
        "marker-size": "small"
      }
    },
    {
      "type": "Feature",
      "geometry": {
        "type": "Point",
        "coordinates": [
          -74.002088,
          40.734297
        ]
      },
      "properties": {
        "description": "Chelsea Piers",
        "title": "Monster Bar",
        "marker-size": "small"
      }
    },
    {
      "type": "Feature",
      "geometry": {
        "type": "Point",
        "coordinates": [
          -74.002163,
          40.734044
        ]
      },
      "properties": {
        "description": "Catrina Lovelace",
        "title": "The Stonewall Inn",
        "marker-size": "small"
      }
    },
    {
      "type": "Feature",
      "geometry": {
        "type": "Point",
        "coordinates": [
          -74.007877,
          40.741057
        ]
      },
      "properties": {
        "description": "Ari Kiki",
        "title": "The Standard (Le Bain)",
        "marker-size": "small"
      }
    },
    {
      "type": "Feature",
      "geometry": {
        "type": "Point",
        "coordinates": [
          -74.000136,
          40.734172
        ]
      },
      "properties": {
        "description": "Vicky Boofont",
        "title": "Pieces",
        "marker-size": "small"
      }
    },
    {
      "type": "Feature",
      "geometry": {
        "type": "Point",
        "coordinates": [
          -74.009738,
          40.732836
        ]
      },
      "properties": {
        "description": "Deliah J Brooks",
        "title": "Rockbar",
        "marker-size": "small"
      }
    },
    {
      "type": "Feature",
      "geometry": {
        "type": "Point",
        "coordinates": [
          -73.949563,
          40.713866
        ]
      },
      "properties": {
        "description": "Thorgy Thor",
        "title": "Metropolitan",
        "marker-size": "small"
      }
    },
    {
      "type": "Feature",
      "geometry": {
        "type": "Point",
        "coordinates": [
          -73.902418,
          40.694628
        ]
      },
      "properties": {
        "description": "Zenobia",
        "title": "The Deep End",
        "marker-size": "small"
      }
    }
  ]
}